City_ID,City,Lat,Lng,Max Temp,Humidity,Cloudiness,Wind Speed,Country,Date
0,north bondi,-33.8824,151.2769,22.39,84,100,3.09,AU,1702227831
1,infantes,38.7367,-3.0122,10.56,76,19,2.93,ES,1702227831
2,grytviken,-54.2811,-36.5092,7.48,87,100,2.79,GS,1702227625
3,wailua homesteads,22.0669,-159.378,21.53,82,23,0.45,US,1702227629
4,tupancireta,-29.0806,-53.8358,22.24,81,97,3.39,BR,1702227832
5,adamstown,-25.066,-130.1015,21.02,62,75,5.24,PN,1702227598
6,divino das laranjeiras,-18.7778,-41.4797,30.93,47,88,4.24,BR,1702227833
7,olonkinbyen,70.9221,-8.7187,-5.87,56,14,0.68,SJ,1702227670
8,aykhal,66.0,111.5,-28.63,99,100,1.76,RU,1702227599
9,badger,64.8,-147.5333,-20.66,76,100,0.0,US,1702227647
10,hamilton,39.1834,-84.5333,3.97,75,100,5.14,US,1702227362
11,mount pearl,47.5166,-52.7813,2.69,80,100,5.14,CA,1702227728
12,kodiak,57.79,-152.4072,0.73,100,100,3.6,US,1702227573
13,punta arenas,-53.15,-70.9167,12.06,32,20,10.8,CL,1702227600
14,blackmans bay,-43.0167,147.3167,10.41,78,95,0.45,AU,1702227598
15,novoshcherbinovskaya,46.4767,38.6476,1.91,92,100,6.3,RU,1702227835
16,nirmali,26.3167,86.5833,17.04,39,0,1.47,IN,1702227835
17,lihue,21.9789,-159.3672,23.77,79,40,5.14,US,1702227529
18,alexandria,31.2156,29.9553,17.3,55,100,5.34,EG,1702227723
19,nowshahr,36.649,51.496,14.97,77,0,0.0,IR,1702227836
20,la'ie,21.6477,-157.9253,24.14,84,40,2.68,US,1702227836
21,tacuarembo,-31.7333,-55.9833,25.81,51,5,4.92,UY,1702227742
22,port-aux-francais,-49.35,70.2167,3.32,75,23,10.78,TF,1702227594
23,novyy urgal,51.0736,132.5642,-27.68,88,41,1.46,RU,1702227836
24,edinburgh of the seven seas,-37.0676,-12.3116,13.25,68,100,6.04,SH,1702227596
25,tiksi,71.6872,128.8694,-25.33,100,100,1.53,RU,1702227619
26,atafu village,-8.5421,-172.5159,28.67,77,100,6.09,TK,1702227617
27,avarua,-21.2078,-159.775,25.03,88,100,10.8,CK,1702227643
28,hammerfest,70.6634,23.6821,-4.75,63,75,5.66,NO,1702227837
29,vila nova de foz coa,41.0637,-7.2039,14.18,87,87,3.53,PT,1702227837
30,nemuro,43.3236,145.575,-0.56,54,58,7.47,JP,1702227641
31,udachny,66.4167,112.4,-26.6,95,100,5.56,RU,1702227664
32,dongsheng,39.8161,109.9776,-3.42,99,100,2.04,CN,1702227838
33,ayr,55.4627,-4.6339,5.17,93,75,3.09,GB,1702227838
34,waitangi,-43.9535,-176.5597,9.9,58,25,5.15,NZ,1702227623
35,saint-pierre,-21.3393,55.4781,25.82,78,91,1.54,RE,1702227777
36,georgetown,5.4112,100.3354,27.96,92,20,1.54,MY,1702227453
37,payyannur,12.1,75.2,25.16,91,75,1.39,IN,1702227839
38,macau,22.2006,113.5461,24.28,94,40,2.57,MO,1702227839
39,acapulco de juarez,16.8634,-99.8901,29.9,66,40,2.06,MX,1702227822
40,port mathurin,-19.6833,63.4167,26.72,70,34,4.56,MU,1702227668
41,yellowknife,62.456,-114.3525,-10.33,98,100,4.12,CA,1702227649
42,ust-nera,64.5667,143.2,-19.02,99,100,4.19,RU,1702227646
43,ilulissat,69.2167,-51.1,-3.99,74,100,10.8,GL,1702227646
44,sarmiento,-45.5882,-69.07,21.8,33,100,11.83,AR,1702227840
45,kavak,41.0783,36.0425,6.09,81,15,1.03,TR,1702227840
46,albertina,-22.2008,-46.6158,27.91,52,37,1.08,BR,1702227716
47,ancud,-41.8697,-73.8203,12.41,91,83,6.46,CL,1702227655
48,mana,5.6592,-53.7767,28.51,72,31,3.85,GF,1702227840
49,bethel,41.3712,-73.414,13.84,89,100,2.57,US,1702227543
50,tura,25.5198,90.2201,14.3,53,0,1.3,IN,1702227673
51,gatesville,31.4352,-97.7439,10.2,31,0,5.66,US,1702227640
52,iqaluit,63.7506,-68.5145,-4.15,79,100,4.12,CA,1702227641
53,agadez,19.75,10.25,17.24,25,0,4.23,NE,1702227841
54,isafjordur,66.0755,-23.124,-4.98,86,20,1.54,IS,1702227647
55,lompoc,34.6391,-120.4579,18.77,57,0,3.09,US,1702227648
56,invercargill,-46.4,168.35,2.9,94,17,1.59,NZ,1702227610
57,lata,40.1629,-8.3327,17.26,89,65,1.49,PT,1702227800
58,igboho,8.8333,3.75,30.78,15,63,1.43,NG,1702227842
59,tughyl,47.7252,84.2063,-13.7,90,81,2.53,KZ,1702227842
60,buala,-8.145,159.5921,26.25,83,100,2.14,SB,1702227648
61,la passe,45.5549,-0.8967,15.13,96,100,8.87,FR,1702227801
62,holualoa,19.6228,-155.9522,21.59,76,0,1.79,US,1702227842
63,college,64.8569,-147.8028,-20.61,79,100,0.0,US,1702227643
64,morehead city,34.7229,-76.726,22.01,85,75,7.2,US,1702227641
65,longyearbyen,78.2186,15.6401,-1.09,69,75,4.63,SJ,1702227480
66,jamestown,42.097,-79.2353,5.01,94,100,3.09,US,1702227677
67,suicheng,33.8963,117.9331,3.57,79,98,6.45,CN,1702227843
68,kerikeri,-35.2268,173.9474,18.28,90,100,0.77,NZ,1702227772
69,kiunga,-6.1219,141.2906,23.11,99,100,2.47,PG,1702227655
70,quellon,-43.1167,-73.6167,14.43,76,100,1.82,CL,1702227844
71,zaozersk,69.4005,32.4476,-12.96,87,99,6.69,RU,1702227844
72,kataba,13.9833,44.3833,14.35,62,1,2.08,YE,1702227844
73,balezino,57.9796,53.0106,-32.56,100,29,1.98,RU,1702227844
74,pointe michel,15.25,-61.3833,29.52,65,75,1.54,DM,1702227844
75,rio grande,-32.035,-52.0986,25.06,82,99,8.36,BR,1702227738
76,goroka,-6.0834,145.3873,17.04,98,99,0.79,PG,1702227845
77,boi,9.5683,9.4953,25.28,17,10,1.52,NG,1702227845
78,okhansk,57.7186,55.3877,-28.96,100,22,1.3,RU,1702227845
79,ta`u,-14.2336,-169.5144,24.09,94,100,6.8,AS,1702227845
80,al bardiyah,31.7561,25.0865,16.02,62,99,1.58,LY,1702227846
81,monrovia,6.3005,-10.7969,31.87,73,69,5.22,LR,1702227846
82,dalnegorsk,44.5604,135.5701,-18.8,66,10,5.18,RU,1702227846
83,flying fish cove,-10.4217,105.6791,24.82,83,100,4.63,CX,1702227764
84,afaahiti,-17.75,-149.2833,25.93,84,86,11.18,PF,1702227602
85,katiola,8.1333,-5.1,32.35,18,50,1.26,CI,1702227846
86,thurso,58.5927,-3.5259,7.14,81,100,13.67,GB,1702227669
87,bilibino,68.0546,166.4372,-19.82,100,45,1.29,RU,1702227653
88,nikki,9.9401,3.2108,30.22,11,21,1.36,BJ,1702227847
89,port lincoln,-34.7333,135.8667,15.72,94,100,11.52,AU,1702227811
90,vadso,70.0744,29.7487,-11.91,85,75,8.23,NO,1702227715
91,carnarvon,-24.8667,113.6333,27.35,24,0,7.72,AU,1702227847
92,enewetak,11.3474,162.3373,27.61,73,80,7.75,MH,1702227785
93,kuala terengganu,5.3302,103.1408,27.97,83,20,2.57,MY,1702227847
94,totness,5.8833,-56.3167,29.01,67,55,3.87,SR,1702227848
95,tirunelveli,8.7333,77.7,25.82,85,23,4.11,IN,1702227848
96,papatowai,-46.5619,169.4708,4.34,93,37,1.84,NZ,1702227632
97,kangding,30.0513,101.9603,4.37,72,33,1.13,CN,1702227848
98,saint-tropez,43.2693,6.6398,15.4,58,100,3.71,FR,1702227848
99,albany,42.6001,-73.9662,13.18,88,100,1.34,US,1702227659
100,newman,37.3138,-121.0208,7.3,37,100,0.45,US,1702227647
101,weno,7.4515,151.8468,27.97,78,100,3.6,FM,1702227622
102,nangong,37.3581,115.3744,-1.73,63,100,5.69,CN,1702227849
103,laguna,38.421,-121.4238,12.27,100,0,0.0,US,1702227600
104,minas de marcona,-15.2119,-75.1103,20.34,58,99,3.57,PE,1702227728
105,ndibene dahra,15.3338,-15.4766,36.99,8,18,4.3,SN,1702227849
106,ponta delgada,37.7333,-25.6667,18.44,94,75,4.63,PT,1702227754
107,callao,-12.0667,-77.15,23.16,64,40,4.12,PE,1702227769
108,puerto ayora,-0.7393,-90.3518,27.98,71,48,2.83,EC,1702227645
109,mount pleasant,32.7941,-79.8626,24.0,85,40,6.69,US,1702227849
110,dapa,9.7594,126.0531,26.93,79,60,2.77,PH,1702227850
111,port macquarie,-31.4333,152.9167,16.61,87,2,3.85,AU,1702227718
112,hotan,37.0997,79.9269,6.2,20,0,3.65,CN,1702227726
113,kupang,-10.1667,123.5833,26.73,87,100,1.57,ID,1702227708
114,dudinka,69.4058,86.1778,-29.07,97,100,5.36,RU,1702227638
115,acajutla,13.5928,-89.8275,31.06,54,0,2.19,SV,1702227850
116,alvorada,-12.48,-49.1247,39.2,23,51,0.86,BR,1702227851
117,yenangyaung,20.4667,94.8833,24.07,67,29,2.01,MM,1702227851
118,kadugli,11.0167,29.7167,29.46,16,13,2.4,SD,1702227608
119,cizre,37.3272,42.1903,10.56,93,75,2.57,TR,1702227851
120,bredasdorp,-34.5322,20.0403,19.0,64,0,6.2,ZA,1702227615
121,shubarshi,48.5872,57.1869,-13.8,63,4,6.71,KZ,1702227678
122,hithadhoo,-0.6,73.0833,28.17,73,85,0.3,MV,1702227775
123,nagqu,31.5,92.0,-9.88,48,1,0.81,CN,1702227734
124,nuuk,64.1835,-51.7216,-1.66,74,40,1.03,GL,1702227777
125,carolina beach,34.0352,-77.8936,23.36,85,92,0.45,US,1702227852
126,panjab,34.388,67.0233,-0.9,30,42,1.5,AF,1702227852
127,yigo village,13.5361,144.8886,26.16,88,75,6.17,GU,1702227852
128,lyubimets,41.8333,26.0833,2.71,86,95,1.49,BG,1702227852
129,uturoa,-16.7333,-151.4333,26.7,81,64,8.75,PF,1702227786
130,stanley,54.868,-1.6985,5.77,94,75,3.09,GB,1702227598
131,orchard mesa,39.043,-108.5523,-0.52,59,100,2.57,US,1702227853
132,vorgashor,67.5833,63.95,-25.57,100,94,2.74,RU,1702227726
133,vilyuysk,63.7553,121.6247,-27.9,96,100,3.33,RU,1702227599
134,port augusta,-32.5,137.7667,18.49,88,100,3.44,AU,1702227853
135,grand falls-windsor,48.9332,-55.6649,1.95,73,37,0.89,CA,1702227597
136,lapithos,35.3375,33.1792,13.16,65,100,3.41,CY,1702227854
137,margaret river,-33.95,115.0667,17.0,48,0,7.72,AU,1702227656
138,terenozek,45.05,64.9833,-9.09,23,97,7.03,KZ,1702227854
139,tindouf,27.6711,-8.1474,25.25,19,30,6.17,DZ,1702227652
140,lorengau,-2.0226,147.2712,27.46,84,100,5.55,PG,1702227816
141,howrah,22.5892,88.3103,20.0,73,0,0.0,IN,1702227770
142,katabu,-4.9333,122.5167,25.08,91,83,0.79,ID,1702227854
143,ribeira grande,38.5167,-28.7,18.76,72,40,9.26,PT,1702227646
144,ulaangom,49.9811,92.0667,-23.45,89,100,2.3,MN,1702227855
145,hilo,19.7297,-155.09,23.47,97,100,3.09,US,1702227651
146,petropavlovsk-kamchatsky,53.0452,158.6483,0.33,95,100,6.71,RU,1702227646
147,cold lake,54.4502,-110.2017,-12.03,92,75,1.54,CA,1702227855
148,raduzhnyy,62.0961,77.475,-33.3,98,8,2.14,RU,1702227855
149,bobo-dioulasso,11.1771,-4.2979,34.25,10,0,3.6,BF,1702227855
150,hwange,-18.3693,26.5019,28.6,47,88,3.74,ZW,1702227856
151,quibdo,5.6947,-76.6611,27.19,94,100,0.0,CO,1702227618
152,flin flon,54.7682,-101.865,-8.09,93,100,1.54,CA,1702227856
153,tolanaro,-25.0319,46.9987,27.04,83,20,9.26,MG,1702227621
154,midvagur,62.0511,-7.1939,7.46,81,100,6.17,FO,1702227856
155,hawaiian paradise park,19.5933,-154.9731,23.35,97,100,3.09,US,1702227651
156,nueva guinea,11.6876,-84.4562,25.06,94,98,4.26,NI,1702227857
157,lhokseumawe,5.1801,97.1507,26.31,86,100,1.75,ID,1702227857
158,anadyr,64.75,177.4833,-24.72,75,20,5.0,RU,1702227601
159,el attaf,36.2239,1.6719,19.88,57,72,0.26,DZ,1702227857
160,vila franca do campo,37.7167,-25.4333,18.27,99,100,5.32,PT,1702227755
161,ushuaia,-54.8,-68.3,9.81,50,0,10.8,AR,1702227361
162,zijinglu,34.76,112.9714,-0.37,97,100,4.61,CN,1702227857
163,whitehorse,60.7161,-135.0538,-17.33,81,75,2.06,CA,1702227669
164,camayenne,9.535,-13.6878,30.05,66,75,3.09,GN,1702227858
165,larkird,35.4894,66.6641,7.82,25,26,1.96,AF,1702227858
166,polovinnoye,54.7914,65.9864,-31.36,98,72,3.2,RU,1702227858
167,samoylovka,51.184,43.7081,-7.61,68,98,6.06,RU,1702227858
168,port elizabeth,-33.918,25.5701,20.16,73,20,3.6,ZA,1702227645
169,mossel bay,-34.1831,22.146,19.96,72,2,6.41,ZA,1702227858
170,awjilah,29.1081,21.2869,16.58,52,64,2.45,LY,1702227800
171,las khorey,11.1595,48.1967,25.87,73,43,6.48,SO,1702227648
172,geraldton,-28.7667,114.6,23.23,14,0,6.17,AU,1702227820
173,westport,41.1415,-73.3579,14.75,93,100,2.06,US,1702227859
174,douz,33.4663,9.0203,15.92,41,0,4.53,TN,1702227859
175,igarka,67.4667,86.5833,-34.82,98,100,2.35,RU,1702227860
176,bovalino,38.149,16.174,17.97,90,100,7.94,IT,1702227768
177,utrik,11.2278,169.8474,27.21,76,87,10.83,MH,1702227706
178,puerto natales,-51.7236,-72.4875,12.25,50,75,3.6,CL,1702227594
179,sinjai,-5.1241,120.253,24.59,88,100,1.65,ID,1702227860
180,moyynkum,44.2914,72.9469,-6.8,55,100,4.35,KZ,1702227860
181,iskateley,67.6803,53.1512,-22.77,91,98,4.92,RU,1702227647
182,chonchi,-42.6128,-73.8092,17.56,74,88,2.06,CL,1702227749
183,tazovsky,67.4667,78.7,-31.15,92,65,3.93,RU,1702227640
184,port alfred,-33.5906,26.891,17.88,86,56,0.45,ZA,1702227660
185,vorkuta,67.5,64.0,-25.52,100,94,2.56,RU,1702227861
186,palikir - national government center,6.9248,158.1611,27.5,70,86,6.18,FM,1702227861
187,portland,45.5234,-122.6762,11.45,96,100,5.14,US,1702227345
188,fuxin,42.0156,121.6589,-10.78,34,99,5.19,CN,1702227861
189,queenstown,-31.8976,26.8753,11.48,89,100,3.14,ZA,1702227757
190,talnakh,69.4865,88.3972,-29.33,100,100,4.55,RU,1702227647
191,borzya,50.3833,116.5167,-33.52,100,16,0.16,RU,1702227862
192,chalon-sur-saone,46.7833,4.85,11.23,82,100,5.19,FR,1702227862
193,mogok,22.9167,96.5,12.91,97,4,0.72,MM,1702227862
194,ola,59.5833,151.2833,-2.14,89,100,5.32,RU,1702227778
195,barah,13.7,30.3667,26.14,12,56,4.08,SD,1702227665
196,nova xavantina,-14.6667,-52.35,39.39,22,44,2.15,BR,1702227816
197,shwebo,22.5667,95.7,20.35,87,0,2.72,MM,1702227863
198,borogontsy,62.6683,131.1683,-33.09,94,100,3.54,RU,1702227863
199,young,-32.6833,-57.6333,28.23,37,2,3.95,UY,1702227863
200,dimapur,25.9,93.7333,16.28,94,2,0.59,IN,1702227864
201,isla vista,34.4133,-119.861,24.06,37,0,0.0,US,1702227864
202,shakawe,-18.3667,21.85,22.53,76,100,3.7,BW,1702227864
203,keflavik,64.0049,-22.5624,1.24,80,75,1.54,IS,1702227595
204,colonia,50.9333,6.95,11.05,70,75,5.66,DE,1702227641
205,sola,-13.8833,167.55,26.31,79,100,8.5,VU,1702227864
206,saipan,15.1355,145.701,27.75,78,46,7.07,MP,1702227653
207,ishqoshim,36.7248,71.6133,-2.63,25,100,1.54,TJ,1702227865
208,crane,31.3974,-102.3501,7.07,33,0,3.8,US,1702227792
209,santa terezinha,-29.9002,-50.0904,21.08,87,99,8.41,BR,1702227865
210,qaqortoq,60.7167,-46.0333,-7.33,73,91,1.82,GL,1702227734
211,ivanava,52.1451,25.5365,-0.97,91,100,4.09,BY,1702227865
212,ballina,-28.8667,153.5667,23.37,60,98,2.15,AU,1702227722
213,birao,10.2849,22.7882,28.4,19,86,1.67,CF,1702227866
214,takab,36.4009,47.1133,4.66,69,4,2.57,IR,1702227866
215,tromso,69.6496,18.957,-2.99,63,40,7.72,NO,1702227556
216,ginir,7.1333,40.7,15.7,49,32,0.74,ET,1702227750
217,kashin,57.3592,37.6081,-9.66,93,100,5.27,RU,1702227866
218,shobara,34.85,133.0167,10.92,95,100,1.43,JP,1702227866
219,urangan,-25.3,152.9,23.73,78,64,8.71,AU,1702227773
220,gadzhiyevo,69.2551,33.3362,-11.15,84,100,8.57,RU,1702227599
221,west island,-12.1568,96.8225,25.99,83,36,4.63,CC,1702227599
222,padang,-0.9492,100.3543,27.03,91,98,1.31,ID,1702227867
223,laojunmiao,39.8333,97.7333,-5.06,58,84,1.25,CN,1702227756
224,carloforte,39.145,8.3058,15.86,79,23,5.54,IT,1702227868
225,vilhena,-12.7406,-60.1458,32.12,58,75,2.06,BR,1702227672
226,el granada,37.5027,-122.4694,12.17,72,75,1.54,US,1702227868
227,jutai,-5.1833,-68.9,28.53,73,97,1.8,BR,1702227868
228,nogliki,51.8333,143.1667,-19.81,86,100,5.81,RU,1702227869
229,turpan,42.9333,89.1667,0.75,73,74,0.81,CN,1702227869
230,oranjemund,-28.55,16.4333,18.47,75,3,7.82,NA,1702227869
231,fale old settlement,-9.3852,-171.2468,26.81,84,100,5.37,TK,1702227701
232,thunder bay,48.4001,-89.3168,-4.01,63,100,4.63,CA,1702227545
233,kingston,17.997,-76.7936,31.8,60,20,9.26,JM,1702227156
234,okotoks,50.7289,-113.9828,4.07,80,8,2.79,CA,1702227621
235,andapa,-14.65,49.65,21.69,98,72,0.12,MG,1702227870
236,luderitz,-26.6481,15.1594,16.22,84,11,14.85,NA,1702227643
237,peniche,39.3558,-9.3811,19.05,90,53,4.08,PT,1702227806
238,xinyuan,37.3,99.0,-9.31,67,14,1.46,CN,1702227870
239,ulanhot,46.0833,122.0833,-20.55,73,46,1.69,CN,1702227870
240,shiloh,38.5614,-89.8973,3.84,71,8,2.24,US,1702227871
241,al kharijah,25.4514,30.5464,19.4,23,46,2.82,EG,1702227871
242,hermanus,-34.4187,19.2345,22.85,50,0,5.02,ZA,1702227732
243,pueblo,38.2545,-104.6091,8.25,58,0,1.54,US,1702227871
244,ejutla de crespo,16.5667,-96.7333,23.53,38,32,2.67,MX,1702227871
245,swakopmund,-22.6833,14.5333,20.47,76,46,2.24,NA,1702227662
246,khandyga,62.6667,135.6,-33.65,98,100,1.53,RU,1702227702
247,kirando,-7.4167,30.6,23.9,82,100,1.48,TZ,1702227872
248,eyl,7.9803,49.8164,26.02,80,40,9.43,SO,1702227750
249,cabedelo,-6.9811,-34.8339,30.37,60,54,5.82,BR,1702227831
250,fort st. john,56.2499,-120.8529,1.94,69,75,5.66,CA,1702227872
251,san jose,37.3394,-121.895,12.55,73,20,0.0,US,1702227629
252,ad dilam,23.9915,47.1627,20.23,15,26,2.64,SA,1702227873
253,novyy urengoy,66.0833,76.6333,-33.76,98,21,3.04,RU,1702227873
254,thompson,55.7435,-97.8558,-16.91,85,75,1.54,CA,1702227623
255,lebu,-37.6167,-73.65,15.86,68,100,9.31,CL,1702227677
256,selkirk,50.1436,-96.8845,-5.92,88,35,1.64,CA,1702227631
257,jugsalai,22.7667,86.1833,17.74,42,0,0.51,IN,1702227873
258,cidreira,-30.1811,-50.2056,20.98,86,99,9.14,BR,1702227767
259,bandar lampung,-5.4254,105.258,24.49,90,100,2.35,ID,1702227874
260,mitsamiouli,-11.3847,43.2844,27.7,81,93,4.66,KM,1702227874
261,misawa,40.6836,141.3597,3.67,62,94,4.08,JP,1702227874
262,medicine hat,50.0501,-110.6683,-1.2,80,20,4.63,CA,1702227603
263,jijel,36.8205,5.7667,17.97,63,0,1.03,DZ,1702227875
264,kismayo,-0.3582,42.5454,27.59,77,91,6.19,SO,1702227780
265,mount gambier,-37.8333,140.7667,14.74,88,100,5.49,AU,1702227764
266,bozkurt,41.9577,34.0109,10.0,82,67,1.68,TR,1702227875
267,south hedland,-20.4089,118.5983,27.96,15,1,6.69,AU,1702227875
268,yuzhno-kurilsk,44.0306,145.8556,0.76,76,69,6.35,RU,1702227875
269,fort mcmurray,56.7268,-111.381,-7.23,79,100,2.06,CA,1702227608
270,torbat-e jam,35.244,60.6225,11.4,38,3,2.07,IR,1702227876
271,yusufeli,40.8204,41.5443,8.9,85,47,0.34,TR,1702227876
272,serov,59.6033,60.5787,-35.84,100,64,1.3,RU,1702227876
273,shingu,33.7333,135.9833,11.07,82,96,1.21,JP,1702227729
274,alo,7.4178,6.7371,32.8,37,7,0.65,NG,1702227877
275,smithers,54.7804,-127.1743,-6.82,93,75,0.0,CA,1702227698
276,vilyuchinsk,52.9306,158.4028,1.15,99,100,7.68,RU,1702227773
277,mil'kovo,55.6078,37.7956,-9.25,94,100,4.9,RU,1702227633
278,tsiombe,-25.3,45.4833,25.91,79,37,2.07,MG,1702227877
279,balqash,46.8481,74.995,-8.76,55,100,3.46,KZ,1702227877
280,wuwei,37.9281,102.6414,-1.15,52,85,1.81,CN,1702227878
281,zyrya,40.3661,50.2917,11.05,83,26,15.13,AZ,1702227878
282,prince rupert,54.3161,-130.3201,6.83,100,75,2.57,CA,1702227603
283,soma,39.1855,27.6094,10.13,77,67,0.33,TR,1702227878
284,tarawa,1.419,172.984,27.05,94,75,2.06,KI,1702227879
285,tonota,-21.4833,27.4833,19.2,80,64,3.22,BW,1702227879
286,east london,-33.0153,27.9116,18.52,88,75,3.09,ZA,1702227597
287,birjand,32.8663,59.2211,7.26,29,0,2.06,IR,1702227879
288,lalibela,12.0333,39.0333,17.9,50,87,1.78,ET,1702227879
289,sao miguel do araguaia,-13.275,-50.1628,39.45,22,80,2.95,BR,1702227821
290,arraial do cabo,-22.9661,-42.0278,25.92,65,75,4.12,BR,1702227644
291,ulladulla,-35.35,150.4667,21.54,97,95,0.54,AU,1702227759
292,dwarka,22.2394,68.9678,23.4,55,11,3.54,IN,1702227800
293,peace river,56.2501,-117.286,0.17,90,75,9.26,CA,1702227747
294,kimbe,-5.5502,150.1429,24.25,97,100,0.58,PG,1702227789
295,pandan,14.0453,124.1694,26.06,84,32,2.13,PH,1702227880
296,sao vicente,-23.9631,-46.3919,29.1,60,100,3.6,BR,1702227862
297,praia da vitoria,38.7333,-27.0667,19.14,77,20,5.43,PT,1702227772
298,qom,34.6401,50.8764,15.1,28,5,2.16,IR,1702227881
299,juneau,58.3019,-134.4197,1.0,61,100,4.63,US,1702227881
300,madang,-5.2246,145.7966,24.66,96,100,2.49,PG,1702227881
301,alassio,44.0039,8.1671,13.05,86,81,0.45,IT,1702227882
302,kone,-21.0595,164.8658,21.73,79,100,2.14,NC,1702227756
303,pechora,65.1472,57.2244,-29.52,100,94,0.89,RU,1702227882
304,kavaratti,10.5669,72.642,28.56,75,83,2.68,IN,1702227777
305,cerritos,33.8583,-118.0648,20.92,24,75,4.12,US,1702227882
306,rongelap,11.1635,166.8941,26.87,81,86,8.27,MH,1702227777
307,st. john's,47.5649,-52.7093,3.15,80,100,5.14,CA,1702227547
308,chibougamau,49.9168,-74.3659,2.79,87,100,4.63,CA,1702227883
309,puerto deseado,-47.7503,-65.8938,15.32,59,95,9.18,AR,1702227671
310,northam,51.0333,-4.2167,13.14,90,50,16.1,GB,1702227666
311,greenville,35.6127,-77.3663,20.08,99,100,2.57,US,1702227629
312,lincheng,19.9078,109.6858,22.47,90,7,3.19,CN,1702227883
313,boende,-0.2167,20.8667,24.71,85,88,1.05,CD,1702227884
314,klyuchi,52.2667,79.1667,-20.62,84,21,1.98,RU,1702227700
315,olinda,-8.0089,-34.8553,29.85,62,40,4.12,BR,1702227884
316,dzuunharaa,48.8523,106.4579,-24.56,98,100,0.23,MN,1702227885
317,mbeya,-8.9,33.45,17.87,88,88,1.58,TZ,1702227885
318,jijiang,29.2906,106.2542,16.94,83,87,0.61,CN,1702227885
319,nar'yan-mar,67.6713,53.087,-22.72,91,98,4.92,RU,1702227652
320,igrim,63.1906,64.4162,-35.78,100,12,0.52,RU,1702227885
321,el bayadh,33.6832,1.0193,11.48,47,62,1.47,DZ,1702227885
322,tahara,34.6667,137.2667,12.8,72,91,2.57,JP,1702227886
323,sao joao da barra,-21.6403,-41.0511,23.05,74,100,3.63,BR,1702227770
324,sao raimundo das mangabeiras,-7.0219,-45.4811,33.78,39,76,1.9,BR,1702227774
325,puerto ayacucho,5.6639,-67.6236,32.31,56,40,0.4,VE,1702227886
326,bolintin vale,44.4489,25.7578,1.52,80,18,1.28,RO,1702227886
327,kourou,5.1552,-52.6478,31.03,65,40,3.53,GF,1702227779
328,gao,16.6362,1.637,27.02,12,52,5.07,ML,1702227638
329,basoko,1.2391,23.616,23.45,90,98,2.11,CD,1702227886
330,vrontados,38.4089,26.1328,10.92,93,75,2.06,GR,1702227887
331,san adrian,42.3465,-1.9226,13.99,86,100,1.32,ES,1702227887
332,pisco,-13.7,-76.2167,22.03,73,0,4.63,PE,1702227776
333,selendi,38.7444,28.8678,8.88,67,92,1.59,TR,1702227887
334,leiyang,26.4024,112.8591,14.7,89,91,3.25,CN,1702227831
335,severo-yeniseyskiy,60.3725,93.0408,-38.57,100,47,0.45,RU,1702227769
336,galesong,-5.3166,119.3661,24.01,82,99,1.79,ID,1702227887
337,akjoujt,19.6969,-14.4164,32.06,11,0,7.48,MR,1702227888
338,paramonga,-10.6667,-77.8333,22.99,70,48,4.91,PE,1702227888
339,alesund,62.4723,6.1549,3.08,82,75,3.6,NO,1702227888
340,remire-montjoly,4.9167,-52.2667,31.02,66,75,4.12,GF,1702227649
341,arkhangel'sk,64.5401,40.5433,-16.94,77,0,6.0,RU,1702227888
342,xunchang,28.4543,104.715,14.51,76,99,0.36,CN,1702227888
343,labuan,5.2767,115.2417,26.2,94,20,0.0,MY,1702227889
344,katsuura,35.1333,140.3,11.35,73,99,2.13,JP,1702227716
345,bardai,11.65,7.2333,25.66,12,88,3.67,NG,1702227773
346,graaff-reinet,-32.2522,24.5308,16.62,69,91,9.49,ZA,1702227889
347,port saint john's,-31.6229,29.5448,17.0,96,100,0.84,ZA,1702227739
348,karratha,-20.7377,116.8463,27.8,50,2,2.7,AU,1702227801
349,kirensk,57.7853,108.1119,-33.35,99,97,1.34,RU,1702227732
350,calbuco,-41.768,-73.1273,19.56,67,64,3.98,CL,1702227889
351,qamdo,31.1667,97.2333,-7.78,57,26,2.43,CN,1702227672
352,moura,38.1401,-7.4486,18.06,79,31,1.45,PT,1702227890
353,stephenville,32.2207,-98.2023,8.2,30,0,2.68,US,1702227890
354,touros,-5.1989,-35.4608,29.23,56,42,6.36,BR,1702227890
355,theniet el had,35.8711,2.0281,11.3,59,56,0.59,DZ,1702227891
356,marsh harbour,26.5412,-77.0636,25.55,68,75,8.25,BS,1702227891
357,punta del este,-34.9667,-54.95,25.06,72,20,5.66,UY,1702227891
358,armacao de buzios,-22.7469,-41.8817,28.03,71,100,3.68,BR,1702227825
359,libreville,0.3925,9.4537,27.01,89,40,2.06,GA,1702227891
360,constantia,44.1833,28.65,0.38,80,98,4.02,RO,1702227443
361,nizhnyaya tavda,57.6731,66.1725,-31.26,97,9,2.64,RU,1702227892
362,puerto baquerizo moreno,-0.9,-89.6,27.55,69,75,5.66,EC,1702227764
363,mezhdurechenskiy,59.6,65.9333,-33.46,98,7,2.11,RU,1702227892
364,priargunsk,50.3691,119.1012,-40.02,100,29,0.26,RU,1702227892
365,santo tome,-31.6627,-60.7653,31.29,43,0,3.58,AR,1702227672
366,shahrud,36.4182,54.9763,7.78,47,11,0.81,IR,1702227892
367,codrington,-38.2667,141.9667,14.91,89,100,7.99,AU,1702227789
368,astaneh-ye ashrafiyeh,37.2596,49.9444,14.96,88,66,1.87,IR,1702227893
369,west fargo,46.875,-96.9004,-6.0,84,100,1.54,US,1702227670
370,zaltan,32.947,11.8665,16.82,59,12,5.15,LY,1702227893
371,fortuna,40.5982,-124.1573,8.19,100,0,2.06,US,1702227788
372,axim,4.8699,-2.2405,28.83,71,83,3.82,GH,1702227760
373,kapit,2.0167,112.9333,22.6,98,84,0.34,MY,1702227893
374,baidoa,3.1138,43.6498,26.98,48,19,3.86,SO,1702227894
375,timiryazevskoye,56.49,84.8769,-26.75,79,99,2.16,RU,1702227894
376,novodvinsk,64.4165,40.8122,-17.14,83,100,5.12,RU,1702227894
377,gumi,36.1136,128.336,12.75,85,100,0.77,KR,1702227894
378,lerwick,60.1545,-1.1494,7.0,80,100,10.42,GB,1702227597
379,atherton,53.5237,-2.4935,10.2,87,87,2.68,GB,1702227678
380,nuku'alofa,-21.1333,-175.2,22.19,88,20,2.06,TO,1702227894
381,brisas de zicatela,15.8369,-97.0419,29.75,58,41,2.85,MX,1702227687
382,tulun,54.5611,100.5792,-35.89,100,53,0.74,RU,1702227895
383,chimore,-16.9833,-65.1333,31.06,69,72,1.86,BO,1702227895
384,bikenibeu village,1.3673,173.1241,26.98,94,75,2.06,KI,1702227895
385,naze,28.3667,129.4833,21.51,83,79,5.51,JP,1702227895
386,siwa oasis,29.2041,25.5195,17.87,37,6,2.63,EG,1702227707
387,playa del ingles,27.7567,-15.5787,23.55,73,100,2.92,ES,1702227789
388,gamba,-2.65,10.0,26.95,81,100,3.96,GA,1702227896
389,sena madureira,-9.0656,-68.6569,31.09,58,79,3.09,BR,1702227896
390,tingo maria,-9.2895,-76.0088,30.61,59,57,1.37,PE,1702227896
391,belmonte,-15.8631,-38.8828,29.31,59,37,3.83,BR,1702227896
392,san antonio de pale,-1.4014,5.6325,27.59,78,96,5.81,GQ,1702227699
393,znamenskoye,57.1281,73.8282,-27.63,98,98,2.32,RU,1702227897
394,rabo de peixe,37.8,-25.5833,17.77,99,75,4.63,PT,1702227897
395,chela,34.069,104.4619,0.4,57,84,1.55,CN,1702227897
396,labrador city,52.9463,-66.9114,0.1,100,100,6.17,CA,1702227647
397,batticaloa,7.7102,81.6924,26.29,83,43,1.04,LK,1702227897
398,fort bragg,35.139,-79.006,22.91,81,75,4.63,US,1702227729
399,port moresby,-9.4431,147.1797,24.89,82,94,0.73,PG,1702227840
400,hawick,55.4227,-2.7867,5.11,97,100,0.94,GB,1702227898
401,kapuskasing,49.4169,-82.4331,-4.95,86,100,7.72,CA,1702227579
402,san pablo villa de mitla,16.9167,-96.4,22.13,48,49,2.69,MX,1702227898
403,saudarkrokur,65.7461,-19.6394,-6.46,75,20,4.47,IS,1702227899
404,zakamensk,50.3741,103.2863,-27.71,100,61,0.35,RU,1702227900
405,guixi,28.2886,117.2133,17.5,93,100,1.51,CN,1702227900
406,nema,57.5067,50.5011,-26.0,98,80,1.76,RU,1702227900
407,ciudad tula,23.0,-99.7167,17.93,48,10,3.06,MX,1702227900
408,yeppoon,-23.1333,150.7333,23.88,77,53,10.26,AU,1702227900
409,paranhos,-23.8928,-55.4311,20.8,96,100,1.42,BR,1702227900
410,mornant,45.6167,4.6667,10.42,82,100,3.04,FR,1702227901
411,bokoro,12.3807,17.0568,27.27,11,8,3.79,TD,1702227901
412,kampung sungai ara,5.327,100.2735,27.95,89,20,0.0,MY,1702227901
413,nanping,26.645,118.1736,17.61,88,1,0.64,CN,1702227901
414,vila velha,-20.3297,-40.2925,25.97,76,75,5.14,BR,1702227646
415,joao pinheiro,-17.7425,-46.1725,34.75,28,10,3.68,BR,1702227902
416,itoman,26.1247,127.6694,21.21,83,3,2.06,JP,1702227779
417,odienne,9.51,-7.5692,33.17,15,94,1.41,CI,1702227902
418,suva,-18.1416,178.4415,18.71,94,20,2.06,FJ,1702227902
419,gisborne,-38.6533,178.0042,13.84,85,99,3.05,NZ,1702227903
420,mamers,48.3333,0.25,13.48,92,100,7.37,FR,1702227903
421,sinabang,2.4803,96.3801,26.24,85,77,1.91,ID,1702227820
422,hadibu,12.65,54.0333,25.6,69,16,6.85,YE,1702227727
423,tamandare,-8.7597,-35.1047,28.83,58,86,4.43,BR,1702227794
424,pacol,10.45,122.8167,26.39,83,86,5.22,PH,1702227904
425,estancias de florida,18.3666,-66.5696,30.31,95,74,7.18,PR,1702227904
426,moranbah,-22.0016,148.0466,20.79,80,0,8.05,AU,1702227598
427,mawlaik,23.6333,94.4167,18.5,93,17,0.52,MM,1702227904
428,coahuayana de hidalgo,18.7,-103.6583,31.24,43,98,0.46,MX,1702227905
429,kolpny,52.2282,37.0368,-5.52,95,100,4.82,RU,1702227905
430,wenchang,30.904,118.4887,10.8,85,100,3.68,CN,1702227905
431,luanda,-8.8368,13.2343,29.0,80,75,5.14,AO,1702227631
432,jirja,26.3383,31.8916,22.12,35,0,2.06,EG,1702227906
433,kiruna,67.8557,20.2251,-11.49,85,75,4.12,SE,1702227906
434,aripuana,-9.1667,-60.6333,36.6,35,29,0.68,BR,1702227906
435,haiku-pauwela,20.9219,-156.3051,24.47,80,20,3.13,US,1702227779
436,virginia,37.5481,-77.4467,18.29,96,100,4.63,US,1702227675
437,xindi,29.8167,113.4667,8.65,84,100,7.02,CN,1702227907
438,satka,55.0425,59.04,-26.44,100,73,0.53,RU,1702227907
439,gurun,5.8172,100.4738,25.88,95,82,1.55,MY,1702227907
440,charlotte amalie,18.3419,-64.9307,27.85,78,40,7.72,VI,1702227908
441,puerto san jose,13.9256,-90.8244,29.33,56,3,1.5,GT,1702227803
442,huarmey,-10.0681,-78.1522,23.28,71,53,4.58,PE,1702227908
443,tambura,5.6,27.4667,28.69,27,21,0.63,SS,1702227730
444,onega,63.9061,38.1404,-13.9,92,100,5.9,RU,1702227804
445,shimoda,34.6667,138.95,12.28,57,44,2.84,JP,1702227909
446,zaragoza,41.6561,-0.8773,18.25,60,20,0.0,ES,1702227712
447,kolonia town,6.964,158.206,28.07,70,92,6.21,FM,1702227797
448,zhangjiakou,40.81,114.8794,-5.89,93,100,2.63,CN,1702227910
449,mawu,29.5923,107.3139,12.88,95,95,1.14,CN,1702227910
450,talcahuano,-36.7167,-73.1167,22.82,43,0,6.69,CL,1702227910
451,motygino,58.1831,94.7592,-35.68,99,26,1.79,RU,1702227666
452,lauro de freitas,-12.8944,-38.3272,28.01,69,75,9.26,BR,1702227803
453,adrar,20.5022,-10.0711,27.1,16,64,6.75,MR,1702227765
454,kovdor,67.5662,30.4758,-17.92,99,98,1.89,RU,1702227911
455,kapa'a,22.0752,-159.319,22.28,82,18,0.45,US,1702227675
456,waitara,-38.925,174.25,11.38,92,53,2.98,NZ,1702227911
457,oltu,40.5498,42.0013,4.54,78,32,2.24,TR,1702227912
458,polyarnyy,69.1989,33.4478,-11.57,84,100,8.11,RU,1702227644
459,juuka,63.2333,29.25,-11.3,94,100,3.54,FI,1702227912
460,yanchep,-31.55,115.6833,22.38,30,0,5.85,AU,1702227912
461,dom pedrito,-30.9828,-54.6731,24.92,59,2,4.8,BR,1702227912
462,anloga,5.7947,0.8973,28.91,73,26,5.52,GH,1702227913
463,san andres,12.5847,-81.7006,31.01,74,20,8.23,CO,1702227650
464,mwinilunga,-11.7358,24.4293,20.15,82,60,1.13,ZM,1702227913
465,kodinsk,58.6881,99.1844,-33.09,100,29,0.4,RU,1702227734
466,brookings,44.3114,-96.7984,-3.0,86,0,1.34,US,1702227774
467,fuyuan,46.4333,127.0833,-29.69,97,6,1.78,CN,1702227914
468,mundemba,4.9479,8.8724,28.28,72,40,3.01,CM,1702227914
469,meadow lakes,61.6247,-149.6011,-8.54,80,0,5.14,US,1702227683
470,marquette,46.5333,-87.6335,-2.59,85,99,4.02,US,1702227915
471,newton mearns,55.7733,-4.3334,4.44,94,75,4.63,GB,1702227916
472,as sulayyil,20.4607,45.5779,18.14,20,100,4.48,SA,1702227916
473,kailua-kona,19.6406,-155.9956,24.22,74,0,1.79,US,1702227419
474,altai,46.3722,96.2583,-16.02,59,1,3.66,MN,1702227917
475,nova sintra,14.8667,-24.7167,23.34,72,83,4.59,CV,1702227722
476,coquimbo,-29.9533,-71.3436,16.85,82,75,2.57,CL,1702227639
477,susuman,62.7833,148.1667,-13.34,93,100,0.45,RU,1702227472
478,labytnangi,66.6572,66.4183,-30.82,100,88,2.56,RU,1702227719
479,qulsary,46.9531,54.0198,-5.58,25,9,9.14,KZ,1702227918
480,happy valley-goose bay,53.3168,-60.3315,-5.83,63,75,2.06,CA,1702227756
481,saurimo,-9.6608,20.3916,21.14,89,90,2.86,AO,1702227919
482,okha,53.5739,142.9478,-19.15,86,100,10.24,RU,1702227919
483,revda,56.801,59.9303,-27.11,100,100,1.66,RU,1702227761
484,mejit,10.2753,170.8646,27.1,78,94,10.96,MH,1702227660
485,arroio do meio,-29.4011,-51.945,22.4,90,100,1.13,BR,1702227769
486,morshansk,53.4435,41.8107,-9.32,86,100,4.93,RU,1702227919
487,opuwo,-18.0607,13.84,28.65,23,1,7.31,NA,1702227643
488,khash,28.2211,61.2158,13.25,23,3,2.03,IR,1702227920
489,saddiqabad,28.3062,70.1307,18.78,18,12,1.92,PK,1702227920
490,alofi,-19.0595,-169.9187,23.94,94,100,3.09,NU,1702227771
491,selfoss,63.9331,-20.9971,-2.75,79,53,2.77,IS,1702227920
492,belyye vody,42.4167,69.8333,-2.38,83,100,1.13,KZ,1702227921
493,bayganin,48.6947,55.8742,-12.65,60,7,6.97,KZ,1702227921
494,kampung tanjung karang,3.4242,101.1849,25.98,94,97,1.43,MY,1702227921
495,ha long,20.9511,107.08,23.77,96,39,1.79,VN,1702227921
496,cabrobo,-8.5142,-39.31,36.18,23,0,3.72,BR,1702227921
497,chaoyang,41.5703,120.4586,-9.35,30,100,5.49,CN,1702227922
498,louviers,49.2167,1.1667,13.03,94,100,7.72,FR,1702227922
499,santana,-0.0583,-51.1817,33.1,62,40,6.17,BR,1702227922
500,kerimaki,61.9167,29.2833,-12.03,85,100,2.06,FI,1702227922
501,muli,2.9167,73.5667,28.39,76,68,1.9,MV,1702227727
502,kruisfontein,-34.0033,24.7314,17.71,76,73,4.1,ZA,1702227824
503,ayutla de los libres,16.9,-99.2167,31.4,44,97,0.64,MX,1702227923
504,sitka,57.0531,-135.33,1.94,87,75,3.09,US,1702227728
505,yarmouth,41.7057,-70.2286,17.19,87,75,5.14,US,1702227923
506,santa cruz,-17.8,-63.1667,36.03,41,40,6.17,BO,1702227923
507,esenler,41.0435,28.8762,8.21,87,79,2.06,TR,1702227848
508,khovd,48.0056,91.6419,-16.55,88,17,0.82,MN,1702227759
509,tchollire,8.4022,14.1698,28.61,16,0,1.4,CM,1702227924
510,taoudenni,22.6783,-3.9836,23.67,13,29,8.56,ML,1702227924
511,varena,54.2167,24.5667,-2.0,92,100,4.52,LT,1702227924
512,khabarovsk,48.4808,135.0928,-22.48,63,16,12.96,RU,1702227925
513,mogocha,53.7333,119.7667,-33.71,96,5,1.45,RU,1702227925
514,sosnovo-ozerskoye,52.5249,111.5418,-34.41,100,49,1.3,RU,1702227925
515,kyren,51.6828,102.1408,-25.03,91,25,0.45,RU,1702227822
516,meulaboh,4.1363,96.1285,24.98,92,96,1.93,ID,1702227925
517,ghormach,35.7306,63.7826,12.77,26,73,1.67,AF,1702227925
518,bandon,51.7469,-8.7425,10.77,79,55,13.76,IE,1702227818
519,el calafate,-50.3408,-72.2768,12.28,56,100,3.41,AR,1702227926
520,zouerate,22.7187,-12.4521,27.69,15,66,7.19,MR,1702227926
521,la ronge,55.1001,-105.2842,-12.86,78,20,2.57,CA,1702227926
522,broome,42.2506,-75.833,12.21,94,100,3.6,US,1702227926
523,gereida,11.2811,25.1414,25.7,15,74,1.23,SD,1702227927
524,dalhart,36.0595,-102.5133,1.39,38,30,7.58,US,1702227651
525,smidovich,48.6,133.8167,-22.07,78,1,7.39,RU,1702227927
526,achit,56.7985,57.8994,-29.21,100,49,1.26,RU,1702227927
527,tucurui,-3.7661,-49.6725,33.48,51,59,0.59,BR,1702227827
528,zhangye,38.9342,100.4517,-1.97,40,99,0.63,CN,1702227927
529,marco,25.9726,-81.729,28.92,69,0,7.72,US,1702227927
530,misratah,32.3754,15.0925,19.0,64,37,9.82,LY,1702227928
531,san patricio,28.017,-97.5169,14.53,25,0,7.06,US,1702227597
532,santyoku,37.4406,129.1708,10.11,89,100,5.94,KR,1702227928
533,maloye ganyushkino,46.6,49.2667,-1.05,71,100,9.29,KZ,1702227928
534,constitucion,-35.3333,-72.4167,21.42,53,58,5.69,CL,1702227747
535,vizinga,61.0749,50.1031,-25.67,99,75,1.81,RU,1702227928
536,malpe,13.35,74.7167,24.61,85,76,1.39,IN,1702227696
537,berezovyy,51.6667,135.7,-23.2,67,6,3.93,RU,1702227929
538,hajjah,15.6943,43.6058,17.61,55,5,0.5,YE,1702227929
539,san julian,21.0167,-102.1667,18.22,45,61,6.08,MX,1702227929
540,sikasso,10.9167,-7.0,35.3,8,43,2.72,ML,1702227929
541,richards bay,-28.783,32.0377,20.34,95,100,4.59,ZA,1702227929
542,ghat,24.9647,10.1728,15.77,53,73,7.96,LY,1702227792
543,salalah,17.0151,54.0924,25.05,57,0,2.57,OM,1702227930
544,fayzabad,37.1166,70.58,8.24,20,100,1.94,AF,1702227930
545,ust'-ilimsk,58.0006,102.6619,-35.31,100,36,1.44,RU,1702227930
546,penhalonga,-18.8911,32.6978,22.52,56,77,1.57,ZW,1702227930
547,malakal,9.5334,31.6605,30.29,22,92,2.39,SS,1702227931
548,christchurch,-43.5333,172.6333,12.17,78,3,3.6,NZ,1702227614
549,nushki,29.5542,66.0215,12.35,26,7,0.99,PK,1702227931
550,dalandzadgad,43.5708,104.425,-7.81,62,75,0.88,MN,1702227931
551,bagan serai,5.0108,100.541,28.01,100,93,0.94,MY,1702227931
552,parintins,-2.6283,-56.7358,34.41,49,97,1.35,BR,1702227788
553,bria,6.5423,21.9863,27.98,35,94,1.05,CF,1702227932
554,villa union,23.2,-106.2333,28.28,57,0,0.0,MX,1702227932
555,byakabanda,-0.7425,31.4064,18.45,92,58,1.59,UG,1702227932
556,cururupu,-1.8283,-44.8683,31.21,55,99,3.98,BR,1702227932
557,malvan,16.0667,73.4667,27.43,74,29,2.49,IN,1702227933
558,walvis bay,-22.9575,14.5053,20.53,64,0,3.6,NA,1702227752
559,kitimat,54.0524,-128.6534,1.21,100,100,0.98,CA,1702227933
560,carrizo springs,28.5219,-99.8606,13.34,30,0,4.12,US,1702227933
561,tadine,-21.55,167.8833,22.73,72,100,6.13,NC,1702227776
562,kovalam,8.3667,76.9967,29.05,79,40,0.0,IN,1702227933
563,sungurlu,40.1675,34.3739,6.69,73,52,1.44,TR,1702227934
564,novohrad-volynskyi,50.5941,27.6165,-0.02,86,100,4.0,UA,1702227934
565,taunggyi,20.7833,97.0333,13.57,95,0,0.47,MM,1702227934
566,rodolfo sanchez taboada,31.7167,-116.5667,17.83,21,3,0.89,MX,1702227934
567,ouesso,1.6136,16.0517,26.42,76,98,1.22,CG,1702227812
568,sretensk,52.2453,117.7093,-33.36,99,8,0.57,RU,1702227934
569,tarko-sale,64.9225,77.785,-40.49,100,44,1.46,RU,1702227935
570,kindu,-2.95,25.95,22.02,99,87,1.26,CD,1702227935
571,tekeli,44.83,78.8239,-7.46,69,100,3.21,KZ,1702227935
572,cefa,46.9167,21.7333,3.23,93,100,3.09,RO,1702227935
573,bodaybo,57.8506,114.1933,-31.73,99,100,0.08,RU,1702227936
574,valdivia,-39.8142,-73.2459,21.05,36,92,2.08,CL,1702227739
575,mengibar,37.9701,-3.7965,17.07,100,60,1.14,ES,1702227936
576,gaya,24.7833,85.0,14.95,82,0,0.0,IN,1702227937
577,gorontalo,0.5412,123.0595,24.17,95,96,1.65,ID,1702227937
578,sol'tsy,58.1239,30.3238,-8.24,95,100,3.28,RU,1702227937
579,paulden,34.8856,-112.4682,7.1,27,10,1.44,US,1702227938
580,ascension,30.2169,-90.9001,14.48,56,0,7.2,US,1702227938
581,yerofey pavlovich,53.9667,121.9667,-31.01,92,11,1.67,RU,1702227938
582,nasiriyah,31.0521,46.261,22.01,29,66,2.55,IQ,1702227938
583,pindushi,62.9152,34.58,-12.39,94,100,4.95,RU,1702227938
